[
  {
    "name": "Sunrise Hospital",
    "address": {
      "street": "789 Oak Avenue",
      "city": "Metropolis",
      "state": "MA",
      "zipcode": "12345"
    },
    "contact": {
      "phone": "123-456-7890",
      "email": "info@sunrisehospital.com"
    },
    "specialties": ["Emergency Care", "Surgery", "Pediatrics"],
    "ratings": 4.8,
    "distance": 2.5,
    "opening_hours": {
      "monday": "8:00 AM - 8:00 PM",
      "tuesday": "8:00 AM - 8:00 PM",
      "wednesday": "8:00 AM - 8:00 PM",
      "thursday": "8:00 AM - 8:00 PM",
      "friday": "8:00 AM - 8:00 PM",
      "saturday": "9:00 AM - 5:00 PM",
      "sunday": "Closed"
    },
    "website": "http://www.sunrisehospital.com",
    "facilities": ["Parking", "Pharmacy"]
  },
  {
    "name": "Rainbow Medical Center",
    "address": {
      "street": "456 Elm Street",
      "city": "Rivertown",
      "state": "NY",
      "zipcode": "54321"
    },
    "contact": {
      "phone": "987-654-3210",
      "email": "info@rainbowmedicalcenter.com"
    },
    "specialties": ["Pediatrics", "Oncology", "Dermatology"],
    "ratings": 4.5,
    "distance": 3.2,
    "opening_hours": {
      "monday": "9:00 AM - 6:00 PM",
      "tuesday": "9:00 AM - 6:00 PM",
      "wednesday": "9:00 AM - 6:00 PM",
      "thursday": "9:00 AM - 6:00 PM",
      "friday": "9:00 AM - 6:00 PM",
      "saturday": "10:00 AM - 4:00 PM",
      "sunday": "Closed"
    },
    "website": "http://www.rainbowmedicalcenter.com",
    "facilities": ["Laboratory", "Cafeteria"]
  },
  {
    "name": "Golden Gate Hospital",
    "address": {
      "street": "789 Maple Avenue",
      "city": "Cityville",
      "state": "CA",
      "zipcode": "98765"
    },
    "contact": {
      "phone": "456-789-0123",
      "email": "info@goldengatehospital.com"
    },
    "specialties": ["Cardiology", "Orthopedics", "Neurology"],
    "ratings": 4.3,
    "distance": 6.7,
    "opening_hours": {
      "monday": "7:30 AM - 7:00 PM",
      "tuesday": "7:30 AM - 7:00 PM",
      "wednesday": "7:30 AM - 7:00 PM",
      "thursday": "7:30 AM - 7:00 PM",
      "friday": "7:30 AM - 7:00 PM",
      "saturday": "9:00 AM - 5:00 PM",
      "sunday": "Closed"
    },
    "website": "http://www.goldengatehospital.com",
    "facilities": ["Emergency Care", "Radiology"]
  },
  {
    "name": "Hope Hospital",
    "address": {
      "street": "123 Pine Street",
      "city": "Greenville",
      "state": "SC",
      "zipcode": "54321"
    },
    "contact": {
      "phone": "890-123-4567",
      "email": "info@hopehospital.com"
    },
    "specialties": ["Oncology", "Gastroenterology", "ENT"],
    "ratings": 4.7,
    "distance": 4.1,
    "opening_hours": {
      "monday": "8:30 AM - 5:30 PM",
      "tuesday": "8:30 AM - 5:30 PM",
      "wednesday": "8:30 AM - 5:30 PM",
      "thursday": "8:30 AM - 5:30 PM",
      "friday": "8:30 AM - 5:30 PM",
      "saturday": "9:00 AM - 1:00 PM",
      "sunday": "Closed"
    },
    "website": "http://www.hopehospital.com",
    "facilities": ["Parking", "Pharmacy"]
  },
  {
    "name": "Unity Medical Center",
    "address": {
      "street": "789 Cedar Avenue",
      "city": "Springfield",
      "state": "IL",
      "zipcode": "23456"
    },
    "contact": {
      "phone": "234-567-8901",
      "email": "info@unitymedicalcenter.com"
    },
    "specialties": ["Internal Medicine", "Family Practice", "Geriatrics"],
    "ratings": 4.9,
    "distance": 1.8,
    "opening_hours": {
      "monday": "8:00 AM - 6:00 PM",
      "tuesday": "8:00 AM - 6:00 PM",
      "wednesday": "8:00 AM - 6:00 PM",
      "thursday": "8:00 AM - 6:00 PM",
      "friday": "8:00 AM - 6:00 PM",
      "saturday": "9:00 AM - 4:00 PM",
      "sunday": "Closed"
    },
    "website": "http://www.unitymedicalcenter.com",
    "facilities": ["Laboratory", "Physical Therapy"]
  }
]
